,City,Country,Latitude,Longitude,Temp,Maximum Temp,Humidity,Wind Speed,Cloud Cover
0,kununurra,AU,-15.77,128.73,69.8,69.8,88.0,10.4,50.0
1,tuktoyaktuk,CA,69.45,-133.04,21.2,21.2,85.0,12.75,75.0
2,albany,US,42.6,-73.97,52.41,53.01,88.0,3.85,99.0
3,abu kamal,SY,34.45,40.92,81.77,81.77,15.0,10.83,57.0
4,bethel,US,41.37,-73.41,54.61,55.4,93.0,6.93,90.0
5,hilo,US,19.73,-155.09,69.62,71.6,78.0,8.05,75.0
6,rikitea,PF,-23.12,-134.97,72.61,72.61,73.0,15.26,5.0
7,salalah,OM,17.02,54.09,80.6,80.6,88.0,3.36,20.0
8,faanui,PF,-16.48,-151.75,78.04,78.04,80.0,11.27,3.0
9,rikitea,PF,-23.12,-134.97,72.61,72.61,73.0,15.26,5.0
10,chuy,UY,-33.7,-53.46,65.75,65.75,69.0,7.52,84.0
11,saint-philippe,RE,-21.36,55.77,70.65,75.2,73.0,3.36,20.0
12,homer,US,59.64,-151.55,37.27,41.0,72.0,3.36,40.0
13,aguas vermelhas,BR,-15.75,-41.46,80.67,80.67,61.0,4.88,69.0
14,albany,US,42.6,-73.97,52.41,53.01,88.0,3.85,99.0
15,barrow,US,71.29,-156.79,26.6,26.6,53.0,12.75,90.0
16,waingapu,ID,-9.66,120.26,79.92,79.92,78.0,12.35,100.0
17,nichinan,JP,31.6,131.37,67.77,67.77,73.0,1.97,0.0
18,chisinau,MD,47.01,28.86,68.0,68.0,82.0,18.34,20.0
19,rikitea,PF,-23.12,-134.97,72.61,72.61,73.0,15.26,5.0
20,chuy,UY,-33.7,-53.46,65.75,65.75,69.0,7.52,84.0
21,rikitea,PF,-23.12,-134.97,72.61,72.61,73.0,15.26,5.0
22,ushuaia,AR,-54.8,-68.3,50.0,50.0,29.0,13.87,40.0
23,matagami,CA,49.75,-77.63,44.6,44.6,100.0,17.22,90.0
24,rikitea,PF,-23.12,-134.97,72.61,72.61,73.0,15.26,5.0
25,ushuaia,AR,-54.8,-68.3,50.0,50.0,29.0,13.87,40.0
26,hermanus,ZA,-34.42,19.23,59.0,59.0,65.0,1.01,34.0
27,alyangula,AU,-13.85,136.42,75.2,75.2,94.0,5.55,25.0
28,hilo,US,19.73,-155.09,69.62,71.6,78.0,8.05,75.0
29,amherst,US,41.4,-82.22,60.03,62.01,54.0,5.82,1.0
30,qaqortoq,GL,60.72,-46.03,41.0,41.0,80.0,4.7,75.0
31,puerto ayora,EC,-0.74,-90.35,73.81,75.2,73.0,9.17,75.0
32,hermanus,ZA,-34.42,19.23,59.0,59.0,65.0,1.01,34.0
33,puerto ayora,EC,-0.74,-90.35,73.81,75.2,73.0,9.17,75.0
34,innisfail,AU,-17.53,146.03,71.19,71.19,88.0,6.26,34.0
35,punta arenas,CL,-53.15,-70.92,44.6,44.6,65.0,34.45,75.0
36,caravelas,BR,-17.71,-39.25,76.96,76.96,85.0,9.01,85.0
37,grindavik,IS,63.84,-22.43,46.4,46.4,87.0,26.4,90.0
38,la ronge,CA,55.1,-105.28,33.8,33.8,69.0,20.8,90.0
39,peleduy,RU,59.63,112.74,27.21,27.21,85.0,9.33,100.0
40,sitka,US,57.05,-135.33,39.2,39.2,93.0,3.56,20.0
41,kapaa,US,22.08,-159.32,76.84,80.6,83.0,12.75,90.0
42,hilo,US,19.73,-155.09,69.62,71.6,78.0,8.05,75.0
43,mahebourg,MU,-20.41,57.7,75.2,75.2,83.0,10.29,75.0
44,qaanaaq,GL,77.48,-69.36,22.78,22.78,81.0,6.49,0.0
45,ushuaia,AR,-54.8,-68.3,50.0,50.0,29.0,13.87,40.0
46,constitucion,CL,-35.33,-72.42,64.18,64.18,50.0,15.43,0.0
47,evensk,RU,61.95,159.23,37.26,37.26,84.0,7.14,100.0
48,victoria,HK,22.29,114.16,73.85,75.99,89.0,33.44,100.0
49,chandil,IN,22.97,86.05,78.37,78.37,85.0,2.08,21.0
50,victoria,HK,22.29,114.16,73.85,75.99,89.0,33.44,100.0
51,mayo,US,38.89,-76.51,60.85,61.0,100.0,6.93,90.0
52,busselton,AU,-33.65,115.33,57.92,60.01,80.0,12.88,52.0
53,vaini,TO,-21.2,-175.2,71.6,71.6,68.0,9.17,40.0
54,punta arenas,CL,-53.15,-70.92,44.6,44.6,65.0,34.45,75.0
55,hobart,AU,-42.88,147.33,39.31,41.0,93.0,8.05,40.0
56,butaritari,KI,3.07,172.79,81.86,81.86,73.0,18.79,35.0
57,belaya gora,RU,68.53,146.42,18.16,18.16,95.0,3.42,32.0
58,vaini,TO,-21.2,-175.2,71.6,71.6,68.0,9.17,40.0
59,houston,US,29.76,-95.36,80.89,82.99,57.0,5.91,1.0
60,synya,RU,65.37,58.04,45.07,45.07,90.0,10.56,100.0
61,garden city,US,42.33,-83.33,63.57,66.0,45.0,5.82,20.0
62,ushuaia,AR,-54.8,-68.3,50.0,50.0,29.0,13.87,40.0
63,lucea,JM,18.45,-78.17,86.88,87.8,70.0,10.29,20.0
64,kapaa,US,22.08,-159.32,76.84,80.6,83.0,12.75,90.0
65,goderich,CA,43.75,-81.72,56.75,61.0,85.0,10.47,0.0
66,yellowknife,CA,62.46,-114.35,23.43,24.01,67.0,26.4,75.0
67,quelimane,MZ,-17.88,36.89,77.0,77.0,78.0,6.93,20.0
68,busselton,AU,-33.65,115.33,57.92,60.01,80.0,12.88,52.0
69,bluff,NZ,-46.6,168.33,42.01,42.01,78.0,14.0,84.0
70,gat,IL,31.61,34.76,77.92,78.8,57.0,10.29,43.0
71,rikitea,PF,-23.12,-134.97,72.61,72.61,73.0,15.26,5.0
72,prince george,CA,53.92,-122.75,33.6,35.01,75.0,9.17,90.0
73,vaini,TO,-21.2,-175.2,71.6,71.6,68.0,9.17,40.0
74,riyadh,SA,24.69,46.72,82.4,82.4,21.0,3.36,0.0
75,ribeira grande,PT,38.52,-28.7,71.6,71.6,68.0,14.99,75.0
76,grand-lahou,CI,5.14,-5.02,79.16,79.16,82.0,9.31,32.0
77,sao filipe,CV,14.9,-24.5,79.21,79.21,76.0,14.12,20.0
78,ati,TD,13.22,18.34,98.98,98.98,20.0,5.28,54.0
79,butaritari,KI,3.07,172.79,81.86,81.86,73.0,18.79,35.0
80,kruisfontein,ZA,-34.0,24.73,59.0,59.0,63.0,4.0,18.0
81,rikitea,PF,-23.12,-134.97,72.61,72.61,73.0,15.26,5.0
82,gat,IL,31.61,34.76,77.92,78.8,57.0,10.29,43.0
83,hithadhoo,MV,-0.6,73.08,82.53,82.53,73.0,10.76,3.0
84,inawashiro,JP,37.57,140.12,56.97,57.99,78.0,3.76,83.0
85,olga,RU,43.74,135.29,39.88,39.88,71.0,7.45,40.0
86,abeche,TD,13.83,20.83,91.51,91.51,26.0,0.96,0.0
87,karpogory,RU,64.0,44.45,43.95,43.95,89.0,4.97,95.0
88,luderitz,NA,-26.65,15.16,74.39,74.39,34.0,24.09,0.0
89,albany,US,42.6,-73.97,52.41,53.01,88.0,3.85,99.0
90,suntar,RU,62.14,117.63,23.41,23.41,97.0,6.51,100.0
91,kharp,RU,66.8,65.81,39.74,39.74,89.0,7.36,100.0
92,birao,CF,10.28,22.79,80.13,80.13,65.0,2.82,37.0
93,tongren,CN,27.72,109.19,64.09,64.09,82.0,3.53,88.0
94,hobart,AU,-42.88,147.33,39.31,41.0,93.0,8.05,40.0
95,severo-kurilsk,RU,50.68,156.12,49.37,49.37,88.0,33.35,100.0
96,inverell,AU,-29.78,151.12,46.74,48.0,94.0,1.01,0.0
97,norman wells,CA,65.28,-126.83,21.2,21.2,73.0,2.24,75.0
98,avarua,CK,-21.21,-159.78,69.8,69.8,64.0,5.82,27.0
99,busselton,AU,-33.65,115.33,57.92,60.01,80.0,12.88,52.0
100,ponta do sol,PT,32.67,-17.1,72.05,73.99,64.0,12.75,40.0
101,ushuaia,AR,-54.8,-68.3,50.0,50.0,29.0,13.87,40.0
102,mar del plata,AR,-38.0,-57.56,62.55,69.8,52.0,6.93,0.0
103,aldan,RU,58.6,125.39,17.24,17.24,96.0,11.36,100.0
104,rikitea,PF,-23.12,-134.97,72.61,72.61,73.0,15.26,5.0
105,kysyl-syr,RU,63.9,122.76,18.41,18.41,90.0,4.92,87.0
106,coquimbo,CL,-29.95,-71.34,55.4,55.4,87.0,9.17,90.0
107,nikolskoye,RU,59.7,30.79,43.63,46.0,93.0,2.24,75.0
108,nikolskoye,RU,59.7,30.79,43.63,46.0,93.0,2.24,75.0
109,ushuaia,AR,-54.8,-68.3,50.0,50.0,29.0,13.87,40.0
110,jamestown,US,42.1,-79.24,53.46,55.99,71.0,11.41,75.0
111,vardo,NO,70.37,31.11,33.8,33.8,86.0,18.34,40.0
112,bluff,NZ,-46.6,168.33,42.01,42.01,78.0,14.0,84.0
113,thompson,CA,55.74,-97.86,33.8,33.8,86.0,19.46,90.0
114,avarua,CK,-21.21,-159.78,69.8,69.8,64.0,5.82,27.0
115,hamilton,US,39.18,-84.53,64.49,66.99,51.0,3.36,1.0
116,tuktoyaktuk,CA,69.45,-133.04,21.2,21.2,85.0,12.75,75.0
117,busselton,AU,-33.65,115.33,57.92,60.01,80.0,12.88,52.0
118,sao joao da barra,BR,-21.64,-41.05,80.6,80.6,61.0,18.34,75.0
119,tura,IN,25.52,90.22,74.84,74.84,86.0,2.42,20.0
120,port hardy,CA,50.7,-127.42,44.6,44.6,93.0,17.22,90.0
121,jhalawar,IN,24.6,76.15,81.46,81.46,52.0,6.02,41.0
122,saint-paul,RE,-21.01,55.27,68.61,73.4,73.0,11.41,36.0
123,port-gentil,GA,-0.72,8.78,82.4,82.4,74.0,17.22,40.0
124,meulaboh,ID,4.14,96.13,76.35,76.35,82.0,4.97,99.0
125,muswellbrook,AU,-32.27,150.9,57.99,57.99,69.0,1.99,42.0
126,kapaa,US,22.08,-159.32,76.84,80.6,83.0,12.75,90.0
127,busselton,AU,-33.65,115.33,57.92,60.01,80.0,12.88,52.0
128,fortuna,US,40.6,-124.16,55.4,55.4,100.0,3.36,1.0
129,hermanus,ZA,-34.42,19.23,59.0,59.0,65.0,1.01,34.0
130,kochevo,RU,59.6,54.31,47.23,47.23,90.0,7.49,100.0
131,sur,OM,22.57,59.53,82.87,82.87,38.0,12.91,0.0
132,qaanaaq,GL,77.48,-69.36,22.78,22.78,81.0,6.49,0.0
133,castro,BR,-24.79,-50.01,82.96,82.96,33.0,6.02,0.0
134,siavonga,ZM,-16.54,28.71,79.72,79.72,59.0,7.45,13.0
135,georgetown,MY,5.41,100.34,77.0,77.0,94.0,3.36,20.0
136,labuan,MY,5.28,115.24,75.2,75.2,94.0,3.36,40.0
137,vaini,TO,-21.2,-175.2,71.6,71.6,68.0,9.17,40.0
138,broken hill,AU,-31.95,141.43,68.0,68.0,40.0,9.17,0.0
139,bethel,US,41.37,-73.41,54.61,55.4,93.0,6.93,90.0
140,camara de lobos,PT,32.63,-16.97,72.07,75.0,64.0,12.75,40.0
141,carnarvon,AU,-24.87,113.63,68.0,68.0,88.0,14.99,40.0
142,geraldton,AU,-28.77,114.6,66.2,66.2,77.0,5.82,90.0
143,norman wells,CA,65.28,-126.83,21.2,21.2,73.0,2.24,75.0
144,mataura,NZ,-46.19,168.86,42.01,42.01,78.0,14.0,38.0
145,valle de allende,MX,26.93,-105.4,71.82,71.82,46.0,12.24,100.0
146,fortuna,US,40.6,-124.16,55.4,55.4,100.0,3.36,1.0
147,east london,ZA,-33.02,27.91,62.6,62.6,55.0,16.11,2.0
148,busselton,AU,-33.65,115.33,57.92,60.01,80.0,12.88,52.0
149,mataura,NZ,-46.19,168.86,42.01,42.01,78.0,14.0,38.0
150,havre-saint-pierre,CA,50.23,-63.6,44.6,44.6,70.0,5.82,1.0
151,jacksonville,US,30.33,-81.66,83.61,86.0,61.0,4.7,20.0
152,eydhafushi,MV,5.1,73.07,83.68,83.68,76.0,22.75,25.0
153,vaini,TO,-21.2,-175.2,71.6,71.6,68.0,9.17,40.0
154,cape town,ZA,-33.93,18.42,59.34,60.8,55.0,21.92,55.0
155,kaitangata,NZ,-46.28,169.85,44.01,44.01,64.0,17.0,35.0
156,vaini,TO,-21.2,-175.2,71.6,71.6,68.0,9.17,40.0
157,vaini,TO,-21.2,-175.2,71.6,71.6,68.0,9.17,40.0
158,tevriz,RU,57.51,72.4,44.94,44.94,94.0,5.55,100.0
159,punta arenas,CL,-53.15,-70.92,44.6,44.6,65.0,34.45,75.0
160,albany,US,42.6,-73.97,52.41,53.01,88.0,3.85,99.0
161,dwarka,IN,22.24,68.97,85.26,85.26,59.0,10.76,25.0
162,busselton,AU,-33.65,115.33,57.92,60.01,80.0,12.88,52.0
163,mabaruma,GY,8.2,-59.78,84.83,84.83,77.0,6.55,24.0
164,cape town,ZA,-33.93,18.42,59.34,60.8,55.0,21.92,55.0
165,punta arenas,CL,-53.15,-70.92,44.6,44.6,65.0,34.45,75.0
166,villa carlos paz,AR,-31.42,-64.5,82.42,84.0,20.0,21.92,4.0
167,poso,ID,-1.4,120.75,82.0,82.0,74.0,4.85,59.0
168,cabo san lucas,MX,22.89,-109.91,75.54,77.0,78.0,11.41,40.0
169,adrar,MR,20.5,-10.07,98.1,98.1,18.0,3.6,0.0
170,namatanai,PG,-3.67,152.43,76.93,76.93,92.0,7.85,100.0
171,raga,SS,8.46,25.68,72.72,72.72,90.0,3.71,87.0
172,matara,LK,5.95,80.54,80.08,80.08,82.0,15.5,39.0
173,ibra,OM,22.69,58.53,74.68,74.68,18.0,5.12,0.0
174,mataura,NZ,-46.19,168.86,42.01,42.01,78.0,14.0,38.0
175,hobart,AU,-42.88,147.33,39.31,41.0,93.0,8.05,40.0
176,ghanzi,BW,-21.57,21.78,79.63,79.63,20.0,8.75,0.0
177,kapaa,US,22.08,-159.32,76.84,80.6,83.0,12.75,90.0
178,turayf,SA,31.67,38.66,84.2,84.2,23.0,6.93,20.0
179,pemangkat,ID,1.17,108.97,79.54,79.54,83.0,1.48,97.0
180,mataura,NZ,-46.19,168.86,42.01,42.01,78.0,14.0,38.0
181,rikitea,PF,-23.12,-134.97,72.61,72.61,73.0,15.26,5.0
182,ilebo,CD,-4.32,20.58,80.46,80.46,64.0,0.98,58.0
183,kodiak,US,57.79,-152.41,42.8,42.8,87.0,3.42,75.0
184,sungairaya,ID,0.7,108.9,78.98,78.98,85.0,0.49,71.0
185,lorengau,PG,-2.02,147.27,82.22,82.22,79.0,8.48,97.0
186,hobart,AU,-42.88,147.33,39.31,41.0,93.0,8.05,40.0
187,longyearbyen,SJ,78.22,15.64,33.8,33.8,69.0,1.12,75.0
188,tiksi,RU,71.69,128.87,11.59,11.59,95.0,4.12,86.0
189,punta arenas,CL,-53.15,-70.92,44.6,44.6,65.0,34.45,75.0
190,sao joao da barra,BR,-21.64,-41.05,80.6,80.6,61.0,18.34,75.0
191,castro,BR,-24.79,-50.01,82.96,82.96,33.0,6.02,0.0
192,alofi,NU,-19.06,-169.92,69.8,69.8,77.0,11.41,18.0
193,mataura,NZ,-46.19,168.86,42.01,42.01,78.0,14.0,38.0
194,torbay,CA,47.67,-52.73,49.51,51.01,61.0,9.17,20.0
195,chuy,UY,-33.7,-53.46,65.75,65.75,69.0,7.52,84.0
196,mataura,NZ,-46.19,168.86,42.01,42.01,78.0,14.0,38.0
197,wilmington,US,34.23,-77.94,75.22,77.0,78.0,11.41,90.0
198,maroantsetra,MG,-15.43,49.73,74.12,74.12,80.0,5.46,17.0
199,alice springs,AU,-23.7,133.88,60.8,60.8,36.0,9.08,0.0
200,parit buntar,MY,5.13,100.49,77.0,77.0,94.0,4.81,20.0
201,avarua,CK,-21.21,-159.78,69.8,69.8,64.0,5.82,27.0
202,thompson,CA,55.74,-97.86,33.8,33.8,86.0,19.46,90.0
203,port alfred,ZA,-33.59,26.89,59.34,59.34,68.0,18.1,2.0
204,leshukonskoye,RU,64.9,45.76,42.6,42.6,86.0,8.21,100.0
205,iqaluit,CA,63.75,-68.51,24.8,24.8,68.0,3.36,75.0
206,qaanaaq,GL,77.48,-69.36,22.78,22.78,81.0,6.49,0.0
207,atuona,PF,-9.8,-139.03,77.77,77.77,75.0,19.13,65.0
208,luderitz,NA,-26.65,15.16,74.39,74.39,34.0,24.09,0.0
209,bluff,NZ,-46.6,168.33,42.01,42.01,78.0,14.0,84.0
210,ushuaia,AR,-54.8,-68.3,50.0,50.0,29.0,13.87,40.0
211,saskylakh,RU,71.92,114.08,19.6,19.6,96.0,10.45,96.0
212,salalah,OM,17.02,54.09,80.6,80.6,88.0,3.36,20.0
213,yerbogachen,RU,61.28,108.01,23.7,23.7,90.0,8.77,95.0
214,carnarvon,AU,-24.87,113.63,68.0,68.0,88.0,14.99,40.0
215,maningrida,AU,-12.07,134.27,77.05,77.05,80.0,6.89,3.0
216,kerema,PG,-7.96,145.78,78.51,78.51,89.0,7.09,98.0
217,takaungu,KE,-3.68,39.86,81.57,82.4,78.0,8.05,20.0
218,bredasdorp,ZA,-34.53,20.04,60.8,60.8,55.0,9.17,20.0
219,cape town,ZA,-33.93,18.42,59.34,60.8,55.0,21.92,55.0
220,sawakin,SD,19.11,37.33,84.65,84.65,68.0,5.37,0.0
221,khatanga,RU,71.97,102.5,11.48,11.48,96.0,8.72,76.0
222,tuktoyaktuk,CA,69.45,-133.04,21.2,21.2,85.0,12.75,75.0
223,hermanus,ZA,-34.42,19.23,59.0,59.0,65.0,1.01,34.0
224,ushuaia,AR,-54.8,-68.3,50.0,50.0,29.0,13.87,40.0
225,tuktoyaktuk,CA,69.45,-133.04,21.2,21.2,85.0,12.75,75.0
226,trento,IT,46.07,11.12,41.9,53.01,76.0,1.63,13.0
227,nuevo progreso,MX,23.17,-97.95,80.01,80.01,82.0,4.0,62.0
228,bethel,US,41.37,-73.41,54.61,55.4,93.0,6.93,90.0
229,atuona,PF,-9.8,-139.03,77.77,77.77,75.0,19.13,65.0
230,ushuaia,AR,-54.8,-68.3,50.0,50.0,29.0,13.87,40.0
231,vardo,NO,70.37,31.11,33.8,33.8,86.0,18.34,40.0
232,matara,LK,5.95,80.54,80.08,80.08,82.0,15.5,39.0
233,ushuaia,AR,-54.8,-68.3,50.0,50.0,29.0,13.87,40.0
234,yellowknife,CA,62.46,-114.35,23.43,24.01,67.0,26.4,75.0
235,pangnirtung,CA,66.15,-65.71,26.6,26.6,86.0,3.36,20.0
236,avarua,CK,-21.21,-159.78,69.8,69.8,64.0,5.82,27.0
237,cape town,ZA,-33.93,18.42,59.34,60.8,55.0,21.92,55.0
238,katobu,ID,-4.94,122.53,75.45,75.45,88.0,2.73,77.0
239,ushuaia,AR,-54.8,-68.3,50.0,50.0,29.0,13.87,40.0
240,kolda,SN,12.88,-14.95,84.2,84.2,71.0,4.74,100.0
241,yellowknife,CA,62.46,-114.35,23.43,24.01,67.0,26.4,75.0
242,noumea,NC,-22.28,166.46,71.6,71.6,88.0,1.12,90.0
243,rikitea,PF,-23.12,-134.97,72.61,72.61,73.0,15.26,5.0
244,bengkulu,ID,-3.8,102.27,76.28,76.28,89.0,3.49,100.0
245,vaini,TO,-21.2,-175.2,71.6,71.6,68.0,9.17,40.0
246,san juan,AR,-31.54,-68.54,88.36,88.36,12.0,9.01,0.0
247,port alfred,ZA,-33.59,26.89,59.34,59.34,68.0,18.1,2.0
248,phan thiet,VN,10.93,108.1,76.48,76.48,90.0,8.05,100.0
249,sassandra,CI,4.95,-6.08,78.98,78.98,83.0,8.61,31.0
250,faanui,PF,-16.48,-151.75,78.04,78.04,80.0,11.27,3.0
251,yellowknife,CA,62.46,-114.35,23.43,24.01,67.0,26.4,75.0
252,pevek,RU,69.7,170.31,25.02,25.02,86.0,10.87,100.0
253,souillac,MU,-20.52,57.52,75.2,75.2,83.0,10.29,75.0
254,port alfred,ZA,-33.59,26.89,59.34,59.34,68.0,18.1,2.0
255,mataura,NZ,-46.19,168.86,42.01,42.01,78.0,14.0,38.0
256,biak,ID,-0.91,122.88,77.65,77.65,78.0,6.2,67.0
257,airai,TL,-8.93,125.41,60.71,60.71,68.0,2.64,100.0
258,busselton,AU,-33.65,115.33,57.92,60.01,80.0,12.88,52.0
259,ambon,ID,-3.7,128.18,75.67,75.99,94.0,9.17,40.0
260,busselton,AU,-33.65,115.33,57.92,60.01,80.0,12.88,52.0
261,hobart,AU,-42.88,147.33,39.31,41.0,93.0,8.05,40.0
262,ushuaia,AR,-54.8,-68.3,50.0,50.0,29.0,13.87,40.0
263,butaritari,KI,3.07,172.79,81.86,81.86,73.0,18.79,35.0
264,kapaa,US,22.08,-159.32,76.84,80.6,83.0,12.75,90.0
265,hermanus,ZA,-34.42,19.23,59.0,59.0,65.0,1.01,34.0
266,dzilam gonzalez,MX,21.28,-88.93,85.35,85.35,77.0,6.55,19.0
267,saldanha,ZA,-33.01,17.94,62.6,62.6,55.0,17.22,54.0
268,caravelas,BR,-17.71,-39.25,76.96,76.96,85.0,9.01,85.0
269,vanimo,PG,-2.67,141.3,79.11,79.11,83.0,1.43,64.0
270,ushuaia,AR,-54.8,-68.3,50.0,50.0,29.0,13.87,40.0
271,cape town,ZA,-33.93,18.42,59.34,60.8,55.0,21.92,55.0
272,kapaa,US,22.08,-159.32,76.84,80.6,83.0,12.75,90.0
273,severo-kurilsk,RU,50.68,156.12,49.37,49.37,88.0,33.35,100.0
274,kaitangata,NZ,-46.28,169.85,44.01,44.01,64.0,17.0,35.0
275,mahebourg,MU,-20.41,57.7,75.2,75.2,83.0,10.29,75.0
276,geraldton,AU,-28.77,114.6,66.2,66.2,77.0,5.82,90.0
277,port alfred,ZA,-33.59,26.89,59.34,59.34,68.0,18.1,2.0
278,rikitea,PF,-23.12,-134.97,72.61,72.61,73.0,15.26,5.0
279,bredasdorp,ZA,-34.53,20.04,60.8,60.8,55.0,9.17,20.0
280,hamilton,US,39.18,-84.53,64.49,66.99,51.0,3.36,1.0
281,barrow,US,71.29,-156.79,26.6,26.6,53.0,12.75,90.0
282,bilibino,RU,68.05,166.44,23.61,23.61,86.0,2.46,96.0
283,punta arenas,CL,-53.15,-70.92,44.6,44.6,65.0,34.45,75.0
284,olafsvik,IS,64.89,-23.71,46.26,46.26,85.0,25.81,100.0
285,barrow,US,71.29,-156.79,26.6,26.6,53.0,12.75,90.0
286,pisco,PE,-13.7,-76.22,66.54,66.99,77.0,11.41,1.0
287,mataura,NZ,-46.19,168.86,42.01,42.01,78.0,14.0,38.0
288,fiditi,NG,7.71,3.92,78.35,78.35,89.0,3.18,91.0
289,puerto escondido,MX,15.85,-97.07,86.0,86.0,70.0,4.43,20.0
290,san patricio,US,28.02,-97.52,84.15,86.0,58.0,6.93,20.0
291,paamiut,GL,61.99,-49.67,37.0,37.0,92.0,2.39,52.0
292,rikitea,PF,-23.12,-134.97,72.61,72.61,73.0,15.26,5.0
293,saldanha,ZA,-33.01,17.94,62.6,62.6,55.0,17.22,54.0
294,dikson,RU,73.51,80.55,30.88,30.88,91.0,5.88,98.0
295,trincomalee,LK,8.57,81.23,82.54,82.54,71.0,22.64,49.0
296,charters towers,AU,-20.1,146.27,63.91,63.91,88.0,9.69,0.0
297,rikitea,PF,-23.12,-134.97,72.61,72.61,73.0,15.26,5.0
298,butaritari,KI,3.07,172.79,81.86,81.86,73.0,18.79,35.0
299,wanning,CN,18.8,110.4,78.01,78.01,89.0,18.12,100.0
300,nieuw amsterdam,SR,5.88,-55.08,85.03,85.03,72.0,12.59,32.0
301,flin flon,CA,54.77,-101.86,35.6,35.6,74.0,18.34,90.0
302,san matias,BO,-16.37,-58.4,109.78,109.78,18.0,5.5,44.0
303,rikitea,PF,-23.12,-134.97,72.61,72.61,73.0,15.26,5.0
304,husavik,IS,66.04,-17.34,50.0,50.0,57.0,12.75,10.0
305,hermanus,ZA,-34.42,19.23,59.0,59.0,65.0,1.01,34.0
306,tarime,TZ,-1.35,34.37,75.2,75.2,78.0,6.93,20.0
307,roura,GF,4.73,-52.33,91.4,91.4,55.0,11.41,75.0
308,yellowknife,CA,62.46,-114.35,23.43,24.01,67.0,26.4,75.0
309,assiniboia,CA,49.63,-105.98,45.43,45.43,53.0,16.22,40.0
310,ilulissat,GL,69.22,-51.1,48.2,48.2,49.0,12.75,75.0
311,kavieng,PG,-2.57,150.8,82.22,82.22,81.0,12.88,100.0
312,punta arenas,CL,-53.15,-70.92,44.6,44.6,65.0,34.45,75.0
313,colwyn bay,GB,53.29,-3.73,53.37,54.0,86.0,8.99,97.0
314,pevek,RU,69.7,170.31,25.02,25.02,86.0,10.87,100.0
315,mapimi,MX,25.82,-103.85,77.0,77.0,31.0,7.05,20.0
316,tuktoyaktuk,CA,69.45,-133.04,21.2,21.2,85.0,12.75,75.0
317,kudahuvadhoo,MV,2.67,72.89,83.16,83.16,78.0,19.3,76.0
318,tres picos,MX,15.87,-93.53,89.89,89.89,57.0,3.15,55.0
319,christchurch,NZ,-43.53,172.63,51.64,52.0,71.0,25.28,81.0
320,ushuaia,AR,-54.8,-68.3,50.0,50.0,29.0,13.87,40.0
321,jiuquan,CN,39.74,98.52,42.49,42.49,55.0,6.24,28.0
322,harper,LR,4.38,-7.72,78.64,78.64,86.0,8.43,96.0
323,medicine hat,CA,50.05,-110.67,35.6,35.6,50.0,5.82,75.0
324,busselton,AU,-33.65,115.33,57.92,60.01,80.0,12.88,52.0
325,abha,SA,18.22,42.51,65.25,66.2,77.0,4.7,20.0
326,moyale,KE,3.52,39.06,77.59,77.59,52.0,7.02,40.0
327,punta arenas,CL,-53.15,-70.92,44.6,44.6,65.0,34.45,75.0
328,puerto escondido,MX,15.85,-97.07,86.0,86.0,70.0,4.43,20.0
329,busselton,AU,-33.65,115.33,57.92,60.01,80.0,12.88,52.0
330,corpus christi,US,27.8,-97.4,83.48,84.99,58.0,6.93,20.0
331,albany,US,42.6,-73.97,52.41,53.01,88.0,3.85,99.0
332,oktyabrskiy,RU,54.48,53.47,51.82,51.82,45.0,7.07,82.0
333,guia de isora,ES,28.21,-16.78,84.74,87.8,55.0,16.11,64.0
334,kerewan,GM,13.49,-16.09,87.8,87.8,74.0,9.17,75.0
335,busselton,AU,-33.65,115.33,57.92,60.01,80.0,12.88,52.0
336,thompson,CA,55.74,-97.86,33.8,33.8,86.0,19.46,90.0
337,panalingaan,PH,8.78,117.42,79.79,79.79,75.0,2.71,100.0
338,atuona,PF,-9.8,-139.03,77.77,77.77,75.0,19.13,65.0
339,qaqortoq,GL,60.72,-46.03,41.0,41.0,80.0,4.7,75.0
340,leningradskiy,RU,69.38,178.42,17.96,17.96,87.0,5.35,18.0
341,bluff,NZ,-46.6,168.33,42.01,42.01,78.0,14.0,84.0
342,barrow,US,71.29,-156.79,26.6,26.6,53.0,12.75,90.0
343,hermanus,ZA,-34.42,19.23,59.0,59.0,65.0,1.01,34.0
344,topeka,US,39.05,-95.68,70.72,73.0,30.0,3.36,1.0
345,resistencia,AR,-27.46,-58.98,85.33,87.01,30.0,9.17,2.0
346,carnarvon,AU,-24.87,113.63,68.0,68.0,88.0,14.99,40.0
347,rikitea,PF,-23.12,-134.97,72.61,72.61,73.0,15.26,5.0
348,birin,NP,26.89,88.07,78.8,78.8,88.0,1.12,20.0
349,ushuaia,AR,-54.8,-68.3,50.0,50.0,29.0,13.87,40.0
350,geraldton,AU,-28.77,114.6,66.2,66.2,77.0,5.82,90.0
351,rikitea,PF,-23.12,-134.97,72.61,72.61,73.0,15.26,5.0
352,cayenne,GF,4.93,-52.33,91.4,91.4,55.0,11.41,75.0
353,saskylakh,RU,71.92,114.08,19.6,19.6,96.0,10.45,96.0
354,ocos,GT,14.51,-92.19,87.8,87.8,84.0,3.51,40.0
355,praia da vitoria,PT,38.73,-27.07,72.81,73.4,69.0,15.26,20.0
356,jamestown,US,42.1,-79.24,53.46,55.99,71.0,11.41,75.0
357,albany,US,42.6,-73.97,52.41,53.01,88.0,3.85,99.0
358,shimoda,JP,34.67,138.95,63.0,63.0,92.0,11.59,67.0
359,inhambane,MZ,-23.86,35.38,73.2,73.4,73.0,9.17,20.0
360,vaini,TO,-21.2,-175.2,71.6,71.6,68.0,9.17,40.0
361,portland,US,45.52,-122.68,57.34,59.0,87.0,16.11,90.0
362,tautira,PF,-17.73,-149.15,77.0,77.0,65.0,6.93,20.0
363,kokuy,RU,52.2,117.55,24.51,24.51,82.0,3.62,0.0
364,atuona,PF,-9.8,-139.03,77.77,77.77,75.0,19.13,65.0
365,butaritari,KI,3.07,172.79,81.86,81.86,73.0,18.79,35.0
366,bredasdorp,ZA,-34.53,20.04,60.8,60.8,55.0,9.17,20.0
367,ushuaia,AR,-54.8,-68.3,50.0,50.0,29.0,13.87,40.0
368,sungaipenuh,ID,-2.08,101.38,66.34,66.34,95.0,0.65,100.0
369,punta arenas,CL,-53.15,-70.92,44.6,44.6,65.0,34.45,75.0
370,manggar,ID,-2.88,108.27,82.49,82.49,78.0,10.58,98.0
371,merauke,ID,-8.47,140.33,79.05,79.05,82.0,13.29,91.0
372,busselton,AU,-33.65,115.33,57.92,60.01,80.0,12.88,52.0
373,nikolskoye,RU,59.7,30.79,43.63,46.0,93.0,2.24,75.0
374,vaini,TO,-21.2,-175.2,71.6,71.6,68.0,9.17,40.0
375,awjilah,LY,29.11,21.29,82.09,82.09,46.0,18.32,32.0
376,clyde river,CA,70.47,-68.59,23.0,23.0,92.0,10.29,75.0
377,mataura,NZ,-46.19,168.86,42.01,42.01,78.0,14.0,38.0
378,new norfolk,AU,-42.78,147.06,39.07,39.99,73.0,1.74,0.0
379,kapaa,US,22.08,-159.32,76.84,80.6,83.0,12.75,90.0
380,yulara,AU,-25.24,130.99,66.2,66.2,24.0,6.93,0.0
381,geraldton,AU,-28.77,114.6,66.2,66.2,77.0,5.82,90.0
382,saint george,US,37.1,-113.58,59.0,59.0,26.0,5.82,1.0
383,ushuaia,AR,-54.8,-68.3,50.0,50.0,29.0,13.87,40.0
384,butaritari,KI,3.07,172.79,81.86,81.86,73.0,18.79,35.0
385,rikitea,PF,-23.12,-134.97,72.61,72.61,73.0,15.26,5.0
386,ketchikan,US,55.34,-131.65,41.0,41.0,93.0,5.82,20.0
387,esperance,AU,-33.87,121.9,60.8,60.8,67.0,16.11,97.0
388,kamenka,RU,51.32,42.77,53.01,53.01,73.0,9.37,98.0
389,hermanus,ZA,-34.42,19.23,59.0,59.0,65.0,1.01,34.0
390,najran,SA,17.49,44.13,80.6,80.6,21.0,6.93,0.0
391,bluff,NZ,-46.6,168.33,42.01,42.01,78.0,14.0,84.0
392,jamestown,US,42.1,-79.24,53.46,55.99,71.0,11.41,75.0
393,nanortalik,GL,60.14,-45.24,38.08,38.08,93.0,13.04,100.0
394,airai,TL,-8.93,125.41,60.71,60.71,68.0,2.64,100.0
395,siddharthanagar,NP,27.5,83.45,76.12,76.12,67.0,3.4,8.0
396,norman wells,CA,65.28,-126.83,21.2,21.2,73.0,2.24,75.0
397,allentown,US,40.61,-75.49,58.87,61.0,82.0,5.82,90.0
398,moree,AU,-29.47,149.85,59.0,59.0,82.0,10.29,1.0
399,arraial do cabo,BR,-22.97,-42.03,80.6,80.6,65.0,23.04,3.0
400,hefei,CN,31.86,117.28,60.8,60.8,82.0,6.71,18.0
401,cape town,ZA,-33.93,18.42,59.34,60.8,55.0,21.92,55.0
402,kiama,AU,-34.68,150.87,59.43,61.0,87.0,9.75,89.0
403,punta arenas,CL,-53.15,-70.92,44.6,44.6,65.0,34.45,75.0
404,bongandanga,CD,1.5,21.05,73.76,73.76,93.0,3.0,97.0
405,jamestown,US,42.1,-79.24,53.46,55.99,71.0,11.41,75.0
406,hanchuan,CN,30.65,113.77,64.4,64.4,88.0,4.47,62.0
407,saldanha,ZA,-33.01,17.94,62.6,62.6,55.0,17.22,54.0
408,itapirapua,BR,-15.82,-50.61,96.93,96.93,31.0,6.38,59.0
409,bredasdorp,ZA,-34.53,20.04,60.8,60.8,55.0,9.17,20.0
410,garden city,US,42.33,-83.33,63.57,66.0,45.0,5.82,20.0
411,kahului,US,20.89,-156.47,73.63,75.99,69.0,12.33,20.0
412,mataura,NZ,-46.19,168.86,42.01,42.01,78.0,14.0,38.0
413,yellowknife,CA,62.46,-114.35,23.43,24.01,67.0,26.4,75.0
414,atuona,PF,-9.8,-139.03,77.77,77.77,75.0,19.13,65.0
415,hermanus,ZA,-34.42,19.23,59.0,59.0,65.0,1.01,34.0
416,lebu,CL,-37.62,-73.65,55.71,55.71,82.0,19.91,28.0
417,kavieng,PG,-2.57,150.8,82.22,82.22,81.0,12.88,100.0
418,tuktoyaktuk,CA,69.45,-133.04,21.2,21.2,85.0,12.75,75.0
419,severo-kurilsk,RU,50.68,156.12,49.37,49.37,88.0,33.35,100.0
420,basco,PH,20.45,121.97,82.98,82.98,79.0,22.64,91.0
421,kampong cham,KH,11.99,105.46,74.21,74.21,97.0,3.11,100.0
422,dudinka,RU,69.41,86.18,26.6,26.6,100.0,13.42,75.0
423,ushuaia,AR,-54.8,-68.3,50.0,50.0,29.0,13.87,40.0
424,victoria,HK,22.29,114.16,73.85,75.99,89.0,33.44,100.0
425,ushuaia,AR,-54.8,-68.3,50.0,50.0,29.0,13.87,40.0
426,tombouctou,ML,20.0,-3.0,101.16,101.16,13.0,8.77,0.0
427,bathsheba,BB,13.22,-59.52,87.8,87.8,62.0,10.29,40.0
428,rikitea,PF,-23.12,-134.97,72.61,72.61,73.0,15.26,5.0
429,dikson,RU,73.51,80.55,30.88,30.88,91.0,5.88,98.0
430,pevek,RU,69.7,170.31,25.02,25.02,86.0,10.87,100.0
431,castro,BR,-24.79,-50.01,82.96,82.96,33.0,6.02,0.0
432,punta arenas,CL,-53.15,-70.92,44.6,44.6,65.0,34.45,75.0
433,barrow,US,71.29,-156.79,26.6,26.6,53.0,12.75,90.0
434,bandarbeyla,SO,9.49,50.81,79.59,79.59,83.0,13.82,37.0
435,castro,BR,-24.79,-50.01,82.96,82.96,33.0,6.02,0.0
436,kapaa,US,22.08,-159.32,76.84,80.6,83.0,12.75,90.0
437,ponta do sol,PT,32.67,-17.1,72.05,73.99,64.0,12.75,40.0
438,khatanga,RU,71.97,102.5,11.48,11.48,96.0,8.72,76.0
439,luderitz,NA,-26.65,15.16,74.39,74.39,34.0,24.09,0.0
440,hobart,AU,-42.88,147.33,39.31,41.0,93.0,8.05,40.0
441,hermanus,ZA,-34.42,19.23,59.0,59.0,65.0,1.01,34.0
442,marsh harbour,BS,26.54,-77.06,82.49,82.49,72.0,10.25,35.0
443,chernigovka,RU,44.34,132.57,38.61,38.61,74.0,13.02,5.0
444,new norfolk,AU,-42.78,147.06,39.07,39.99,73.0,1.74,0.0
445,srednekolymsk,RU,67.45,153.68,35.49,35.49,82.0,9.24,88.0
446,provideniya,RU,64.38,-173.3,29.07,29.07,89.0,3.18,0.0
447,portland,US,45.52,-122.68,57.34,59.0,87.0,16.11,90.0
